_id_x,lat,long,id_x,nombre,codigo,redesid,_id_y,city,date,estacionesid,fecha,hora,id_y,parametro,state,validoorig,valororig
5cccf5bee2705c1932820582,21.883780555556,-102.295825,33,Centro,CEN,30,5cccec88e2705c19326823a7,Aguascalientes,2018-01-30T00:00:00.000Z,33,2018-01-30,0,33SO218013000,SO2,Aguascalientes,1,1.2198
5cccf5bee2705c193282058a,32.4975,-116.97694444444,47,La Mesa,SPABC03,35,5cccecb5e2705c19326dd2e9,Tijuana,2018-01-30T00:00:00.000Z,47,2018-01-30,0,47SO218013000,SO2,Baja California,1,3.148015e-06
5cccf5bee2705c193282058c,28.632775,-106.03886694444,53,SUR,SUR,38,5cccecbbe2705c19326e8097,Chihuahua,2018-01-30T00:00:00.000Z,53,2018-01-30,0,53SO218013000,SO2,Chihuahua -Estatal,1,0.0011
5cccf5bee2705c193282058d,28.652227777778,-106.08535833333,54,Centro,CEN,38,5cccecbfe2705c19326ef416,Chihuahua,2018-01-30T00:00:00.000Z,54,2018-01-30,0,54SO218013000,SO2,Chihuahua -Estatal,1,0.0101
5cccf5bee2705c1932820590,19.262127777778,-103.72403333333,57,Tecnologico,TEC,41,5ccceccde2705c1932704685,Colima,2018-01-30T00:00:00.000Z,57,2018-01-30,0,57SO218013000,SO2,Colima,1,0.0047354763888889
5cccf5bee2705c1932820593,24.026777777778,-104.692975,60,SRNyMA,SRN,42,5cccecdce2705c193271f8ca,Durango,2018-01-30T00:00:00.000Z,60,2018-01-30,0,60SO218013000,SO2,Durango,1,0.008778399999999999
5cccf5bee2705c1932820594,25.551222222222,-103.50252777778,65,Campestre,CAM,43,5cccece0e2705c1932726359,Gómez Palacio,2018-01-30T00:00:00.000Z,65,2018-01-30,0,65SO218013000,SO2,Durango,1,0.10828
5cccf5bee2705c1932820596,20.5175,-100.81555555556,68,Policía,POL,45,5cccece4e2705c193272e514,Celaya,2018-01-30T00:00:00.000Z,68,2018-01-30,0,68SO218013000,SO2,Guanajuato,1,0.00206
5cccf5bee2705c1932820599,20.6925,-101.365,71,Sec. Oficial,SEC,46,5cccecf2e2705c1932746f74,Irapuato,2018-01-30T00:00:00.000Z,71,2018-01-30,0,71SO218013000,SO2,Guanajuato,1,0.01045
5cccf5bee2705c193282059b,20.658055555556,-101.34888888889,73,Teódula,TEO,46,5cccecfee2705c193275c81c,Irapuato,2018-01-30T00:00:00.000Z,73,2018-01-30,0,73SO218013000,SO2,Guanajuato,1,0.010602
5cccf5bee2705c193282059c,21.103055555556,-101.63611111111,74,CICEG - Bomberos,CC,47,5ccced04e2705c19327673d9,León,2018-01-30T00:00:00.000Z,74,2018-01-30,0,74SO218013000,SO2,Guanajuato,1,0.004200199999999999
5cccf5bee2705c193282059e,21.108611111111,-101.68861111111,76,T21,T21,47,5ccced0fe2705c1932779ec0,León,2018-01-30T00:00:00.000Z,76,2018-01-30,0,76SO218013000,SO2,Guanajuato,1,0.004654
5cccf5bee2705c193282059f,20.578611111111,-101.19888888889,77,Cruz roja,CR,48,5ccced16e2705c1932786900,Salamanca,2018-01-30T00:00:00.000Z,77,2018-01-30,0,77SO218013000,SO2,Guanajuato,1,0.065968
5cccf5bee2705c19328205a0,20.558055555556,-101.20472222222,78,DIF,DIF,48,5ccced1ee2705c1932793e35,Salamanca,2018-01-30T00:00:00.000Z,78,2018-01-30,0,78SO218013000,SO2,Guanajuato,1,0.0056482
5cccf5bee2705c19328205a1,20.565,-101.18805555556,79,Nativitas,NAT,48,5ccced23e2705c193279ce79,Salamanca,2018-01-30T00:00:00.000Z,79,2018-01-30,0,79SO218013000,SO2,Guanajuato,1,0.001212
5cccf5bee2705c19328205a2,20.947777777778,-101.42583333333,80,Hospital General,HG,49,5ccced28e2705c19327a6a55,Silao,2018-01-30T00:00:00.000Z,80,2018-01-30,0,80SO218013000,SO2,Guanajuato,1,0.0034672
5cccf5bee2705c19328205a3,20.06,-99.221944444444,82,Centro de Salud,ATI,51,5ccced2fe2705c19327b338b,Atitalaquia,2018-01-30T00:00:00.000Z,82,2018-01-30,0,82SO218013000,SO2,Hidalgo,1,0.00170575888888889
5cccf5bee2705c19328205a4,20.006666666667,-99.218888888889,83,Primaria Revolución,ATO,52,5ccced37e2705c19327bfa1f,Atotonilco,2018-01-30T00:00:00.000Z,83,2018-01-30,0,83SO218013000,SO2,Hidalgo,1,0.00223965555555556
5cccf5bee2705c19328205a5,19.771694444444,-98.577694444444,84,Estación de Bomberos de Cd. Sahagún,TEP,53,5ccced3ee2705c19327cbe82,Tepeapulco,2018-01-30T00:00:00.000Z,84,2018-01-30,0,84SO218013000,SO2,Hidalgo,1,0.001
5cccf5bee2705c19328205a6,20.375111111111,-99.654444444444,85,Hospital,HUI,54,5ccced47e2705c19327d98c9,Huichapan,2018-01-30T00:00:00.000Z,85,2018-01-30,0,85SO218013000,SO2,Hidalgo,1,0.000319356060606061
5cccf5bee2705c19328205a7,20.505555555556,-99.580277777778,87,Primaria Melchor Ocampo,TPJ,56,5ccced4fe2705c19327e6ed4,Tepeji,2018-01-30T00:00:00.000Z,87,2018-01-30,0,87SO218013000,SO2,Hidalgo,1,0.00760171527777778
5cccf5bee2705c19328205a8,20.053777777778,-99.340055555556,90,Centro de Salud,CSA,58,5ccced55e2705c19327f2709,Tula,2018-01-30T00:00:00.000Z,90,2018-01-30,0,90SO218013000,SO2,Hidalgo,1,0.00102514138888889
5cccf5bee2705c19328205aa,20.077222222222,-98.777972222222,93,Museo del Rehilete,REH,59,5ccced64e2705c193280d6a7,Pachuca,2018-01-30T00:00:00.000Z,93,2018-01-30,0,93SO218013000,SO2,Hidalgo,1,0.00274979888888889
5cccf5bee2705c19328205ab,19.840583333333,-98.981333333333,96,Biblioteca,TIZ,60,5ccced6ce2705c1932819c42,Tizayuca,2018-01-30T00:00:00.000Z,96,2018-01-30,0,96SO218013000,SO2,Hidalgo,1,0.00286597777777778
5cccf5bee2705c19328205ad,20.673764722222,-103.33333611111,102,Centro ,CEN,63,5cccead0e2705c193235184c,Guadalajara,2018-01-30T00:00:00.000Z,102,2018-01-30,0,102SO218013000,SO2,Jalisco,1,0.0011052
5cccf5bee2705c19328205b1,20.614444444444,-103.34333333333,106,Miravalle,MIR,63,5ccceae7e2705c193237976c,Guadalajara,2018-01-30T00:00:00.000Z,106,2018-01-30,0,106SO218013000,SO2,Jalisco,1,0.0012471
5cccf5bee2705c19328205b2,20.700538611111,-103.29661666667,107,Oblatos,OBL,63,5ccceaede2705c19323841b8,Guadalajara,2018-01-30T00:00:00.000Z,107,2018-01-30,0,107SO218013000,SO2,Jalisco,1,0.0020604
5cccf5bee2705c19328205b3,20.529149444444,-103.37717944444,108,Santa Fe,SFE,63,5ccceaf4e2705c19323916ea,Guadalajara,2018-01-30T00:00:00.000Z,108,2018-01-30,0,108SO218013000,SO2,Jalisco,1,0.0016877
5cccf5bee2705c19328205b4,20.640966666667,-103.31259194444,109,Tlaquepaque,TLA,63,5ccceaf9e2705c193239ba71,Guadalajara,2018-01-30T00:00:00.000Z,109,2018-01-30,0,109SO218013000,SO2,Jalisco,1,0.0013802
5cccf5bee2705c19328205b5,20.680193055556,-103.39855138889,110,Vallarta,VAL,63,5ccceafee2705c19323a7553,Guadalajara,2018-01-30T00:00:00.000Z,110,2018-01-30,0,110SO218013000,SO2,Jalisco,1,0.0021786
5cccf5bee2705c19328205bb,19.260305555556,-99.645722222222,123,Ceboruco,CB,65,5ccceb04e2705c19323b333e,Toluca,2018-01-30T00:00:00.000Z,123,2018-01-30,0,123SO218013000,SO2,México,1,0.005
5cccf5bee2705c19328205bc,19.278083333333,-99.656416666667,124,Toluca Centro,CE,65,5ccceb0be2705c19323c1488,Toluca,2018-01-30T00:00:00.000Z,124,2018-01-30,0,124SO218013000,SO2,México,1,0.004
5cccf5bee2705c19328205bd,19.270194444444,-99.595194444444,125,Metepec,MT,65,5ccceb12e2705c19323cff05,Toluca,2018-01-30T00:00:00.000Z,125,2018-01-30,0,125SO218013000,SO2,México,1,0.004
5cccf5bee2705c19328205be,19.283444444444,-99.683488888889,126,Oxtotitlán,OX,65,5ccceb18e2705c19323dcc4c,Toluca,2018-01-30T00:00:00.000Z,126,2018-01-30,0,126SO218013000,SO2,México,1,0.003
5cccf5bee2705c19328205c0,19.280416666667,-99.541666666667,128,San Mateo Atenco,SM,65,5ccceb26e2705c19323f6a58,Toluca,2018-01-30T00:00:00.000Z,128,2018-01-30,0,128SO218013000,SO2,México,1,0.004
5cccf5bee2705c19328205c5,18.921817777778,-99.234896666667,134,Cuernavaca 01,PGO,69,5ccceb33e2705c193240fd1b,Cuernavaca,2018-01-30T00:00:00.000Z,134,2018-01-30,0,134SO218013000,SO2,Morelos,1,-0.00011854679999999999
5cccf5bee2705c19328205ca,25.756944444444,-100.36583333333,140,San Bernabé,NO,72,5ccceb4de2705c193243ecd0,Monterrey,2018-01-30T00:00:00.000Z,140,2018-01-30,0,140SO218013000,SO2,Nuevo León,1,0.0085
5cccf5bee2705c19328205cb,25.675833333333,-100.33833333333,141,Obispado,CE,72,5ccceb53e2705c1932449f0e,Monterrey,2018-01-30T00:00:00.000Z,141,2018-01-30,0,141SO218013000,SO2,Nuevo León,1,0.0015
5cccf5bee2705c19328205cc,25.745277777778,-100.255,142,San Nicolás,NE,72,5ccceb59e2705c19324539f6,Monterrey,2018-01-30T00:00:00.000Z,142,2018-01-30,0,142SO218013000,SO2,Nuevo León,1,0.0116
5cccf5bee2705c19328205d3,16.699340277778,-96.866455,160,CEDART,CED,73,5ccceb7be2705c19324913f9,Oaxaca,2018-01-30T00:00:00.000Z,160,2018-01-30,0,160SO218013000,SO2,Oaxaca,1,0.006900000000000001
5cccf5bee2705c19328205d6,19.062722222222,-98.224527777778,163,Benemérito Instituto Normal del Estado,BINE,74,5ccceb8ae2705c19324aa77c,Puebla,2018-01-30T00:00:00.000Z,163,2018-01-30,0,163SO218013000,SO2,Puebla,1,5.5066194444444405e-06
5cccf5bee2705c19328205dd,22.15125,-100.99611111111,171,Industriales Potosinos Asociados,IPAC,79,5ccceb90e2705c19324b6fcb,San Luis Potosí Estatal,2018-01-30T00:00:00.000Z,171,2018-01-30,0,171SO218013000,SO2,San Luis Potosí,1,0.0018176000000000002
5cccf5bee2705c19328205df,22.174222222222,-100.99308333333,174,Biblioteca,BIB,79,5ccceb9be2705c19324cb939,San Luis Potosí Estatal,2018-01-30T00:00:00.000Z,174,2018-01-30,0,174SO218013000,SO2,San Luis Potosí,1,0.0013827
5cccf5bee2705c19328205e9,19.317583333333,-98.237305555556,220,Palacio de Gobierno,PGO,107,5ccceba5e2705c19324dd5ca,Tlaxcala,2018-01-30T00:00:00.000Z,220,2018-01-30,0,220SO218013000,SO2,Tlaxcala,1,0.0002
5cccf5bee2705c19328205eb,19.530094444444,-96.881880555556,235,STPS,STP,115,5cccebafe2705c19324f3698,Xalapa,2018-01-30T00:00:00.000Z,235,2018-01-30,0,235SO218013000,SO2,Veracruz,1,0.0025
5cccf5bee2705c19328205ec,20.973272222222,-89.624811111111,236,SEDUMA01,CEN,116,5cccebb4e2705c19324fce72,Mérida,2018-01-30T00:00:00.000Z,236,2018-01-30,0,236SO218013000,SO2,Yucatán,1,0.927706658
5cccf5bee2705c19328205ed,19.635555555556,-98.912222222222,240,Acolman,ACO,119,5cccebb9e2705c1932507047,Valle de México,2018-01-30T00:00:00.000Z,240,2018-01-30,0,240SO218013000,SO2,Ciudad de México,1,0.001
5cccf5bee2705c19328205ef,19.272222222222,-99.207777777778,242,Ajusco Medio,AJM,119,5cccebbfe2705c19325146ae,Valle de México,2018-01-30T00:00:00.000Z,242,2018-01-30,0,242SO218013000,SO2,Ciudad de México,1,0.001
5cccf5bee2705c19328205f0,19.577222222222,-99.254166666667,243,Atizapán,ATI,119,5cccebc4e2705c193251d3ef,Valle de México,2018-01-30T00:00:00.000Z,243,2018-01-30,0,243SO218013000,SO2,Ciudad de México,1,0.002
5cccf5bee2705c19328205f2,19.326388888889,-99.176111111111,245,Centro de Ciencias de la Atmósfera,CCA,119,5cccebcfe2705c193252ee56,Valle de México,2018-01-30T00:00:00.000Z,245,2018-01-30,0,245SO218013000,SO2,Ciudad de México,1,0.001
5cccf5bee2705c19328205f5,19.365555555556,-99.291944444444,248,Cuajimalpa,CUA,119,5cccebd6e2705c193253ca30,Valle de México,2018-01-30T00:00:00.000Z,248,2018-01-30,0,248SO218013000,SO2,Ciudad de México,1,0
5cccf5bee2705c19328205f6,19.722222222222,-99.198611111111,249,Cuautitlán,CUT,119,5cccebdbe2705c1932545dc2,Valle de México,2018-01-30T00:00:00.000Z,249,2018-01-30,0,249SO218013000,SO2,Ciudad de México,1,0.001
5cccf5bee2705c19328205f8,19.411666666667,-99.152222222222,251,Hospital General de México,HGM,119,5cccebe8e2705c193255b037,Valle de México,2018-01-30T00:00:00.000Z,251,2018-01-30,0,251SO218013000,SO2,Ciudad de México,1,0
5cccf5bee2705c19328205f9,19.384444444444,-99.117777777778,252,Iztacalco,IZT,119,5cccebece2705c1932564626,Valle de México,2018-01-30T00:00:00.000Z,252,2018-01-30,0,252SO218013000,SO2,Ciudad de México,1,0.001
5cccf5bee2705c19328205fa,19.535,-99.117777777778,253,La Presa,LPR,119,5cccebefe2705c1932569798,Valle de México,2018-01-30T00:00:00.000Z,253,2018-01-30,0,253SO218013000,SO2,Ciudad de México,1,0.001
5cccf5bee2705c19328205fb,19.578888888889,-99.039722222222,254,Los Laureles,LLA,119,5cccebf3e2705c19325704b4,Valle de México,2018-01-30T00:00:00.000Z,254,2018-01-30,0,254SO218013000,SO2,Ciudad de México,1,0
5cccf5bee2705c19328205fc,19.424722222222,-99.119722222222,256,Merced,MER,119,5cccebf9e2705c193257ad9c,Valle de México,2018-01-30T00:00:00.000Z,256,2018-01-30,0,256SO218013000,SO2,Ciudad de México,1,0.001
5cccf5bee2705c19328205fd,19.460416666667,-98.902861111111,257,Montecillo,MON,119,5cccebfee2705c1932583b57,Valle de México,2018-01-30T00:00:00.000Z,257,2018-01-30,0,257SO218013000,SO2,Ciudad de México,1,0
5cccf5bee2705c19328205fe,19.393888888889,-99.028333333333,258,Nezahualcóyotl,NEZ,119,5cccec04e2705c193258daa7,Valle de México,2018-01-30T00:00:00.000Z,258,2018-01-30,0,258SO218013000,SO2,Ciudad de México,1,0.001
5cccf5bee2705c19328205ff,19.325277777778,-99.204166666667,259,Pedregal,PED,119,5cccec09e2705c1932595fb4,Valle de México,2018-01-30T00:00:00.000Z,259,2018-01-30,0,259SO218013000,SO2,Ciudad de México,1,0.001
5cccf5bee2705c1932820600,19.533055555556,-99.030555555556,260,San Agustín,SAG,119,5cccec0fe2705c19325a2104,Valle de México,2018-01-30T00:00:00.000Z,260,2018-01-30,0,260SO218013000,SO2,Ciudad de México,1,0.002
5cccf5bee2705c1932820601,19.3575,-99.263055555556,262,Santa Fe,SFE,119,5cccec16e2705c19325ad03d,Valle de México,2018-01-30T00:00:00.000Z,262,2018-01-30,0,262SO218013000,SO2,Ciudad de México,1,0
5cccf5bee2705c1932820602,19.404,-99.202722222222,263,Miguel Hidalgo,MGH,119,5cccec1de2705c19325b99b7,Valle de México,2018-01-30T00:00:00.000Z,263,2018-01-30,0,263SO218013000,SO2,Ciudad de México,1,0
5cccf5bee2705c1932820603,19.246666666667,-99.010833333333,265,Tlahuac,TAH,119,5cccec21e2705c19325c11ea,Valle de México,2018-01-30T00:00:00.000Z,265,2018-01-30,0,265SO218013000,SO2,Ciudad de México,1,0.001
5cccf5bee2705c1932820604,19.529166666667,-99.204722222222,266,Tlalnepantla,TLA,119,5cccec27e2705c19325cc264,Valle de México,2018-01-30T00:00:00.000Z,266,2018-01-30,0,266SO218013000,SO2,Ciudad de México,1,0.003
5cccf5bee2705c1932820605,19.602777777778,-99.177222222222,267,Tultitlán,TLI,119,5cccec2de2705c19325d51a2,Valle de México,2018-01-30T00:00:00.000Z,267,2018-01-30,0,267SO218013000,SO2,Ciudad de México,1,0.002
5cccf5bee2705c1932820606,19.360833333333,-99.073888888889,268,UAM Iztapalapa,UIZ,119,5cccec33e2705c19325deda8,Valle de México,2018-01-30T00:00:00.000Z,268,2018-01-30,0,268SO218013000,SO2,Ciudad de México,1,0
5cccf5bee2705c1932820607,19.304444444444,-99.103888888889,269,UAM Xochimilco,UAX,119,5cccec38e2705c19325e90f4,Valle de México,2018-01-30T00:00:00.000Z,269,2018-01-30,0,269SO218013000,SO2,Ciudad de México,1,0.002
5cccf5bee2705c1932820608,19.6575,-99.096666666667,270,Villa de las Flores,VIF,119,5cccec3de2705c19325f38c7,Valle de México,2018-01-30T00:00:00.000Z,270,2018-01-30,0,270SO218013000,SO2,Ciudad de México,1,0
5cccf5bee2705c1932820609,19.526111111111,-99.0825,271,Xalostoc,XAL,119,5cccec43e2705c19325ff69b,Valle de México,2018-01-30T00:00:00.000Z,271,2018-01-30,0,271SO218013000,SO2,Ciudad de México,1,0.001
5cccf5bee2705c193282060a,20.508972222222,-97.446986111111,291,Universidad Veracruzana,PR-03,120,5cccec4ae2705c193260cedf,Poza Rica,2018-01-30T00:00:00.000Z,291,2018-01-30,0,291SO218013000,SO2,Veracruz,1,0.0046
5cccf5bee2705c193282060b,20.08525,-98.366638888889,292,Tulancingo,TLN,121,5cccec52e2705c193261ac21,Tulancingo,2018-01-30T00:00:00.000Z,292,2018-01-30,0,292SO218013000,SO2,Hidalgo,1,0.00276778055555556
5cccf5bee2705c193282060e,17.094666666667,-96.752166666667,297,Casa Hogar,CHO,73,5cccec56e2705c1932623fc9,Oaxaca,2018-01-30T00:00:00.000Z,297,2018-01-30,0,297SO218013000,SO2,Oaxaca,1,0.0005
5cccf5bee2705c193282060f,19.199166666667,-99.010833333333,299,Milpa Alta,MPA,119,5cccec59e2705c1932629b0a,Valle de México,2018-01-30T00:00:00.000Z,299,2018-01-30,0,299SO218013000,SO2,Ciudad de México,1,0.001
5cccf5bee2705c1932820611,19.292222222222,-99.380555555556,301,Instituto Nacional de Investigaciones Nucleares,INN,119,5cccec63e2705c193263b999,Valle de México,2018-01-30T00:00:00.000Z,301,2018-01-30,0,301SO218013000,SO2,Ciudad de México,1,0.001
5cccf5bee2705c1932820613,21.903,-102.28461111111,303,Instituto Educativo,IED,30,5cccec6ae2705c1932647ac5,Aguascalientes,2018-01-30T00:00:00.000Z,303,2018-01-30,0,303SO218013000,SO2,Aguascalientes,1,8.6428e-05
5cccf5bee2705c1932820614,25.421472222222,-100.99686111111,304,Finanzas,FIN,123,5cccec70e2705c19326536e4,Saltillo,2018-01-30T00:00:00.000Z,304,2018-01-30,0,304SO218013000,SO2,Coahuila,1,0.00020211
5cccf5bee2705c1932820616,28.707666666667,-100.5265,306,Centro de Rehabilitación DIF,DIF,125,5cccec7ce2705c193266cdfd,Piedras Negras,2018-01-30T00:00:00.000Z,306,2018-01-30,0,306SO218013000,SO2,Coahuila,1,0.0016091999999999999
5cccf5bee2705c1932820632,25.73,-100.30972222222,425,Universidad,N2,72,5ccceca6e2705c19326bf5e9,Monterrey,2018-01-30T00:00:00.000Z,425,2018-01-30,0,425SO218013000,SO2,Nuevo León,1,0.0035
